{"version": 0.6, "generator": "Overpass API 0.7.62.8 e802775f", "osm3s": {"timestamp_osm_base": "2025-10-14T12:11:59Z", "copyright": "The data included in this document is from www.openstreetmap.org. The data is made available under ODbL."}, "elements": [{"type": "node", "id": 1685476652, "lat": 8.3354591, "lon": 77.8640852, "tags": {"addr:district": "Tirunelveli", "addr:full": "Main Road", "addr:postcode": "627657", "addr:state": "Tamil Nadu", "amenity": "hospital", "healthcare": "hospital", "name": "A D J Hospital", "source": "OpenGovernmentData"}}, {"type": "node", "id": 1689961963, "lat": 8.336738, "lon": 77.864386, "tags": {"amenity": "hospital", "emergency": "yes", "healthcare": "hospital", "name": "Jerry Hospital"}}, {"type": "node", "id": 2262767875, "lat": 8.3362544, "lon": 77.8658684, "tags": {"amenity": "hospital", "healthcare": "hospital", "name": "Rajan hospital"}}, {"type": "node", "id": 2262767882, "lat": 8.3399264, "lon": 77.8674877}, {"type": "node", "id": 2262767900, "lat": 8.3386085, "lon": 77.8672828, "tags": {"amenity": "hospital", "emergency": "no", "healthcare": "hospital", "name": "Govt hospital (siddha only)"}}, {"type": "node", "id": 2303344373, "lat": 8.165261, "lon": 77.6403995, "tags": {"amenity": "hospital"}}, {"type": "node", "id": 4394791191, "lat": 8.3401207, "lon": 77.8659884}, {"type": "node", "id": 4394791192, "lat": 8.3397888, "lon": 77.8659821}, {"type": "node", "id": 4394791193, "lat": 8.3398004, "lon": 77.8674852}, {"type": "node", "id": 4394791194, "lat": 8.3401283, "lon": 77.8674917}, {"type": "node", "id": 6928760479, "lat": 8.3879784, "lon": 77.6096937, "tags": {"addr:district": "Tirunelveli", "addr:full": "305-B,Main Road(Near Bus Stand), Vallioor", "addr:postcode": "627117", "addr:state": "Tamil Nadu", "amenity": "clinic", "healthcare": "clinic", "name": "Annalekshmy Nursing Home", "source": "OpenGovernmentData"}}, {"type": "node", "id": 6928834005, "lat": 8.3982553, "lon": 77.6156697, "tags": {"addr:district": "Tirunelveli", "addr:full": "Nh 7, North Main Road, Vallioor-627 117", "addr:postcode": "627117", "addr:state": "Tamil Nadu", "amenity": "hospital", "healthcare": "hospital", "name": "Arul Mission Hospital", "source": "OpenGovernmentData"}}, {"type": "node", "id": 6930351828, "lat": 8.3321961, "lon": 77.8637297, "tags": {"addr:district": "Tirunelveli", "addr:full": "Navalady Road Tisaiyanvilai", "addr:postcode": "627657", "addr:state": "Tamil Nadu", "amenity": "hospital", "healthcare": "hospital", "name": "Chidambaram Hospital", "source": "OpenGovernmentData"}}, {"type": "node", "id": 6934230069, "lat": 8.1908826, "lon": 77.7076916, "tags": {"addr:district": "Tirunelveli", "addr:full": "5/34, Sudalai Madasamy Koil Street Koodankulam", "addr:postcode": "627106", "addr:state": "Tamil Nadu", "amenity": "hospital", "name": "Kasthuri Hospital, Tirunelveli", "source": "OpenGovernmentData"}}, {"type": "node", "id": 6934267074, "lat": 8.3843205, "lon": 77.6099405, "tags": {"addr:district": "Tirunelveli", "addr:full": "#153, Perumal Kovil St", "addr:postcode": "627117", "addr:state": "Tamil Nadu", "amenity": "hospital", "healthcare": "hospital", "name": "Annai Amaravathi Hospital", "source": "OpenGovernmentData"}}, {"type": "node", "id": 6936416551, "lat": 8.2620832, "lon": 77.6851697, "tags": {"addr:district": "Tirunelveli", "addr:full": "Vijayapathy Road, Radhapuram Nellai", "addr:postcode": "627111", "addr:state": "Tamil Nadu", "amenity": "hospital", "name": "Dr Velan Memorial Hospital", "source": "OpenGovernmentData"}}, {"type": "node", "id": 7249361574, "lat": 8.397798, "lon": 77.5947675, "tags": {"addr:block": "Valliyoor", "addr:district": "Tirunelveli", "addr:full": "Near Samathuvapuram., Valliyur, Via Rajapudhur", "addr:postcode": "627117", "addr:state": "Tamil Nadu", "addr:subdistrict": "Radhapuram", "amenity": "hospital", "name": "Valliyur Government Hospital", "source": "OpenGovernmentData"}}, {"type": "node", "id": 7249361575, "lat": 8.2577282, "lon": 77.8244722, "tags": {"addr:district": "Tirunelveli", "addr:full": "Near Indian Oil In Vijay Petroleum, Navaladi", "addr:postcode": "627659", "addr:state": "Tamil Nadu", "addr:subdistrict": "Radhapuram", "amenity": "hospital", "name": "Government Hospital, Navaladi", "source": "OpenGovernmentData"}}, {"type": "node", "id": 7249361596, "lat": 8.2633917, "lon": 77.6097885, "tags": {"addr:block": "Valliyoor", "addr:district": "Tirunelveli", "addr:full": "Near Tamilnadu Mercandile Bank, Vadakkankulam, Radhapuram Road", "addr:postcode": "627116", "addr:state": "Tamil Nadu", "addr:subdistrict": "Radhapuram", "amenity": "hospital", "name": "Vadakkankulam,Government hospital", "source": "OpenGovernmentData"}}, {"type": "node", "id": 7249361597, "lat": 8.39151, "lon": 77.609073, "tags": {"addr:block": "Tirunelveli Corp", "addr:district": "Tirunelveli", "addr:full": "23A, Tmb Bank, Main Road, Vadakkuvalliyur", "addr:postcode": "627117", "addr:state": "Tamil Nadu", "amenity": "clinic", "healthcare": "clinic", "name": "Eswari Nursing Home", "source": "OpenGovernmentData"}}, {"type": "node", "id": 7249361605, "lat": 8.4910559, "lon": 77.6595461, "tags": {"addr:district": "Tirunelveli", "addr:full": "Near Police Station, Nanguneri", "addr:postcode": "627108", "addr:state": "Tamil Nadu", "addr:subdistrict": "Nanguneri", "amenity": "hospital", "name": "Government Hospital, Nanguneri", "source": "OpenGovernmentData"}}, {"type": "node", "id": 7249361607, "lat": 8.268576, "lon": 77.6864484, "tags": {"addr:district": "Tirunelveli", "addr:full": "Radhapuram Government Hospital, Near Bus Stand, Radhapuram, Main Road", "addr:postcode": "627657", "addr:state": "Tamil Nadu", "addr:subdistrict": "Radhapuram", "amenity": "hospital", "name": "Government Hospital, Radhapuram", "source": "OpenGovernmentData"}}, {"type": "node", "id": 7249361625, "lat": 8.421419, "lon": 77.942626, "tags": {"addr:block": "Sattankulam", "addr:district": "Thoothukkudi", "addr:full": "Mudalur, Sathankulam, Dharmapuri", "addr:postcode": "628702", "addr:state": "Tamil Nadu", "addr:subdistrict": "Sathankulam", "amenity": "hospital", "name": "Government Hospital, Mudalur", "source": "OpenGovernmentData"}}, {"type": "node", "id": 7249361635, "lat": 8.201218, "lon": 77.710848, "tags": {"addr:district": "Tirunelveli", "addr:full": "2/167, North Street, Kudankulam", "addr:postcode": "627106", "addr:state": "Tamil Nadu", "addr:subdistrict": "Radhapuram", "amenity": "hospital", "name": "Government Hospital, Koodangulam", "source": "OpenGovernmentData"}}, {"type": "node", "id": 7249361646, "lat": 8.4335336, "lon": 77.6006423, "tags": {"addr:block": "Kalakad", "addr:district": "Tirunelveli", "addr:full": "Near Eruvadi Police Station, Eruvadi, Thirukkurungudi Road", "addr:postcode": "627115", "addr:state": "Tamil Nadu", "addr:subdistrict": "Nanguneri", "amenity": "hospital", "name": "Government Hospital, Eruvadi", "source": "OpenGovernmentData"}}, {"type": "node", "id": 7249361659, "lat": 8.4463811, "lon": 77.6055131, "tags": {"addr:block": "Nanguneri", "addr:district": "Tirunelveli", "addr:full": "Near Government Hr Sec School, Eruvadi, North Main Road", "addr:postcode": "627103", "addr:state": "Tamil Nadu", "amenity": "clinic", "name": "Mercy Nursing Home", "source": "OpenGovernmentData"}}, {"type": "node", "id": 7249361679, "lat": 8.388654, "lon": 77.610365, "tags": {"addr:block": "Tirunelveli Corp", "addr:district": "Tirunelveli", "addr:full": "Malappuram, Valliyur", "addr:postcode": "627117", "addr:state": "Tamil Nadu", "amenity": "clinic", "healthcare": "clinic", "name": "Lakshmi Nursing Home", "source": "OpenGovernmentData"}}, {"type": "node", "id": 7249361685, "lat": 8.4430918, "lon": 77.9096381, "tags": {"addr:block": "Sattankulam", "addr:district": "Thoothukkudi", "addr:full": "Government Hospital, Sathankulam, Main Raod", "addr:postcode": "628702", "addr:state": "Tamil Nadu", "addr:subdistrict": "Sathankulam", "amenity": "hospital", "name": "Government Hospital, Sathankulam", "source": "OpenGovernmentData"}}, {"type": "node", "id": 7842255451, "lat": 8.442244, "lon": 77.917865, "tags": {"addr:district": "Thoothukudi", "addr:full": "Sathankulam", "addr:postcode": "628704", "addr:state": "Tamil Nadu", "amenity": "clinic", "name": "Yesumani Clinic", "source": "Local Knowledge"}}, {"type": "node", "id": 7842255457, "lat": 8.443036, "lon": 77.913704, "tags": {"addr:district": "Thoothukudi", "addr:full": "Arsikadai Street, Sathankulam", "addr:postcode": "628704", "addr:state": "Tamil Nadu", "amenity": "clinic", "name": "Aravind Vision Centre", "source": "Local Knowledge"}}, {"type": "node", "id": 7842255458, "lat": 8.3524188, "lon": 77.8958285, "tags": {"addr:district": "Tirunelveli", "addr:full": "Arasoor", "addr:postcode": "628656", "addr:state": "Tamil Nadu", "amenity": "hospital", "healthcare": "hospital", "name": "Arasoor Ananthah Hospital", "source": "Local Knowledge"}}, {"type": "node", "id": 7842255459, "lat": 8.481931, "lon": 77.925575, "tags": {"addr:district": "Thoothukudi", "addr:full": "Thoothukudi", "addr:postcode": "628001", "addr:state": "Tamil Nadu", "amenity": "hospital", "name": "Saravanas Hospital", "source": "Local Knowledge"}}, {"type": "node", "id": 7842255460, "lat": 8.374123, "lon": 77.923563, "tags": {"addr:district": "Tirunelveli", "addr:full": "Naduvakkurichi", "addr:postcode": "628653", "addr:state": "Tamil Nadu", "amenity": "hospital", "name": "Naduva Kurichi Kashpa Hospital", "source": "Local Knowledge"}}, {"type": "node", "id": 7842255466, "lat": 8.417318, "lon": 77.945208, "tags": {"addr:district": "Thoothukudi", "addr:full": "Mudalur", "addr:postcode": "628702", "addr:state": "Tamil Nadu", "amenity": "hospital", "name": "Nava Mudalur Government Hospital", "source": "Local Knowledge"}}, {"type": "node", "id": 7842255467, "lat": 8.442944, "lon": 77.915233, "tags": {"addr:district": "Thoothukudi", "addr:full": "Sathankulam", "addr:postcode": "628704", "addr:state": "Tamil Nadu", "amenity": "hospital", "name": "Dr. Sumathi Hospital", "source": "Local Knowledge"}}, {"type": "node", "id": 7842255486, "lat": 8.444489, "lon": 77.912554, "tags": {"addr:district": "Thoothukudi", "addr:full": "Sathankulam", "addr:postcode": "628704", "addr:state": "Tamil Nadu", "amenity": "hospital", "name": "Dr. Pitchimani Hospital", "source": "Local Knowledge"}}, {"type": "node", "id": 7842255491, "lat": 8.4473342, "lon": 77.9147515, "tags": {"addr:district": "Thoothukudi", "addr:full": "Sathankulam", "addr:postcode": "628704", "addr:state": "Tamil Nadu", "amenity": "hospital", "healthcare": "hospital", "name": "Sandra Hospital", "source": "Local Knowledge"}}, {"type": "node", "id": 7842255507, "lat": 8.4448935, "lon": 77.9129127, "tags": {"addr:district": "Thoothukudi", "addr:full": "Sathankulam", "addr:postcode": "628704", "addr:state": "Tamil Nadu", "amenity": "hospital", "name": "Sekar Hospital", "source": "Local Knowledge"}}, {"type": "node", "id": 7842255510, "lat": 8.440613, "lon": 77.9180479, "tags": {"addr:district": "Thoothukudi", "addr:full": "Sathankulam", "addr:postcode": "628704", "addr:state": "Tamil Nadu", "amenity": "hospital", "name": "Jaikapisha Hospital", "source": "Local Knowledge"}}, {"type": "node", "id": 7842255513, "lat": 8.4423, "lon": 77.905897, "tags": {"addr:district": "Thoothukudi", "addr:full": "Sathankulam", "addr:postcode": "628704", "addr:state": "Tamil Nadu", "amenity": "hospital", "name": "Bala Hospital", "source": "Local Knowledge"}}, {"type": "node", "id": 7842255515, "lat": 8.4364671, "lon": 77.9192102, "tags": {"addr:district": "Thoothukudi", "addr:postcode": "628704", "addr:state": "Tamil Nadu", "amenity": "hospital", "name": "Sivakami Nursing Home", "source": "Local Knowledge"}}, {"type": "node", "id": 7844921862, "lat": 8.2313835, "lon": 77.6340654, "tags": {"addr:district": "Tirunelveli", "addr:full": "Dhanakkarkulam", "addr:postcode": "627116", "addr:state": "Tamil Nadu", "amenity": "hospital", "name": "Koliyankulam Hospital", "source": "Local Knowledge"}}, {"type": "node", "id": 7844921863, "lat": 8.446139, "lon": 77.6054123, "tags": {"addr:district": "Tirunelveli", "addr:full": "Eruvadi", "addr:postcode": "627103", "addr:state": "Tamil Nadu", "amenity": "hospital", "name": "Thangaraj ENT Hospitals", "source": "Local Knowledge"}}, {"type": "node", "id": 7844921864, "lat": 8.1507633, "lon": 77.5722134, "tags": {"addr:district": "Kanyakumari", "addr:full": "Maharajapuram, Anjugramam", "addr:postcode": "627114", "addr:state": "Tamil Nadu", "amenity": "hospital", "name": "Uma Hospital", "source": "Local Knowledge"}}, {"type": "node", "id": 7844921865, "lat": 8.439324, "lon": 77.603196, "tags": {"addr:district": "Tirunelveli", "addr:full": "Eruvadi", "addr:postcode": "627115", "addr:state": "Tamil Nadu", "amenity": "hospital", "name": "Sri Kumar Hospital", "source": "Local Knowledge"}}, {"type": "node", "id": 7844921866, "lat": 8.4645845, "lon": 77.5806317, "tags": {"addr:district": "Tirunelveli", "addr:full": "Dohnavur", "addr:postcode": "627102", "addr:state": "Tamil Nadu", "amenity": "hospital", "name": "The Dohnavur Fellowship", "source": "Local Knowledge"}}, {"type": "node", "id": 7844921868, "lat": 8.334174, "lon": 77.864134, "tags": {"addr:district": "Tirunelveli", "addr:postcode": "627657", "addr:state": "Tamil Nadu", "amenity": "hospital", "healthcare": "hospital", "name": "Rose Children Hospital", "source": "Local Knowledge"}}, {"type": "node", "id": 7844921869, "lat": 8.3343196, "lon": 77.8645976, "tags": {"addr:district": "Tirunelveli", "addr:full": "Thisayanvilai", "addr:postcode": "627657", "addr:state": "Tamil Nadu", "amenity": "hospital", "healthcare": "hospital", "name": "Shobha Hospital", "source": "Local Knowledge"}}, {"type": "node", "id": 7844921870, "lat": 8.385578, "lon": 77.608115, "tags": {"addr:district": "Tirunelveli", "addr:full": "Yadavar, Valliyur", "addr:postcode": "627117", "addr:state": "Tamil Nadu", "amenity": "hospital", "healthcare": "hospital", "name": "Madhumitha Hospital", "source": "Local Knowledge"}}, {"type": "node", "id": 7844921873, "lat": 8.3856271, "lon": 77.6105851, "tags": {"addr:district": "Tirunelveli", "addr:full": "Malappuram, Valliyur", "addr:postcode": "627117", "addr:state": "Tamil Nadu", "amenity": "hospital", "healthcare": "hospital", "name": "Annai Amaravathi Hospital", "source": "Local Knowledge"}}, {"type": "node", "id": 7844921874, "lat": 8.354123, "lon": 77.6645432, "tags": {"addr:district": "Tirunelveli", "addr:full": "Kallikulam", "addr:postcode": "627113", "addr:state": "Tamil Nadu", "amenity": "hospital", "name": "Annan Hospital", "source": "Local Knowledge"}}, {"type": "node", "id": 7844921875, "lat": 8.322792, "lon": 77.578309, "tags": {"addr:district": "Tirunelveli", "addr:full": "Panakudi", "addr:postcode": "627109", "addr:state": "Tamil Nadu", "amenity": "hospital", "healthcare": "hospital", "name": "Vivek Hospital", "source": "Local Knowledge"}}, {"type": "node", "id": 7844921876, "lat": 8.50846, "lon": 77.574139, "tags": {"addr:district": "Tirunelveli", "addr:full": "Tirunelveli", "addr:postcode": "627107", "addr:state": "Tamil Nadu", "amenity": "hospital", "name": "Government Hospital", "source": "Local Knowledge"}}, {"type": "node", "id": 7844921877, "lat": 8.4433735, "lon": 77.5991217, "tags": {"addr:district": "Tirunelveli", "addr:postcode": "627103", "addr:state": "Tamil Nadu", "amenity": "hospital", "name": "Al Hudha Hospital", "source": "Local Knowledge"}}, {"type": "node", "id": 7844921879, "lat": 8.4698789, "lon": 77.6845746, "tags": {"addr:district": "Tirunelveli", "addr:full": "Karankadu", "addr:postcode": "627108", "addr:state": "Tamil Nadu", "amenity": "hospital", "healthcare": "hospital", "name": "Prakash Hospital", "source": "Local Knowledge"}}, {"type": "node", "id": 7844921880, "lat": 8.545698, "lon": 77.7682219, "tags": {"addr:district": "Tirunelveli", "addr:full": "Moolakaraipatti", "addr:postcode": "627354", "addr:state": "Tamil Nadu", "amenity": "clinic", "healthcare": "clinic", "name": "Shree Maruti Clinic", "source": "Local Knowledge"}}, {"type": "node", "id": 7844921882, "lat": 8.387907, "lon": 77.6092148, "tags": {"addr:district": "Tirunelveli", "addr:full": "Valliyur", "addr:postcode": "627117", "addr:state": "Tamil Nadu", "amenity": "hospital", "healthcare": "hospital", "name": "Thiraviam Orthopaedic Hospital", "source": "Local Knowledge"}}, {"type": "node", "id": 7844921888, "lat": 8.433031, "lon": 77.726933, "tags": {"addr:district": "Tirunelveli", "addr:full": "Parpanathapuram", "addr:postcode": "627110", "addr:state": "Tamil Nadu", "amenity": "hospital", "name": "Salom Hospital", "source": "Local Knowledge"}}, {"type": "node", "id": 7844921889, "lat": 8.393156, "lon": 77.610889, "tags": {"addr:district": "Tirunelveli", "addr:full": "Main Road, Malappuram, Valliyur", "addr:postcode": "627117", "addr:state": "Tamil Nadu", "amenity": "hospital", "healthcare": "hospital", "name": "Balaji Hospital", "source": "Local Knowledge", "wheelchair": "yes"}}, {"type": "node", "id": 7844921892, "lat": 8.4128062, "lon": 77.623645, "tags": {"addr:district": "Tirunelveli", "addr:full": "Valliyur", "addr:postcode": "627117", "addr:state": "Tamil Nadu", "amenity": "hospital", "healthcare": "hospital", "name": "Nalamthaa Siddha Hospital", "source": "Local Knowledge"}}, {"type": "node", "id": 7844921893, "lat": 8.335665, "lon": 77.86332, "tags": {"addr:district": "Tirunelveli", "addr:full": "Thisayanvilai", "addr:postcode": "627657", "addr:state": "Tamil Nadu", "amenity": "hospital", "healthcare": "hospital", "name": "VP Hospital", "source": "Local Knowledge"}}, {"type": "node", "id": 7844921895, "lat": 8.32301, "lon": 77.579221, "tags": {"addr:district": "Tirunelveli", "addr:full": "Panakudi", "addr:postcode": "627109", "addr:state": "Tamil Nadu", "amenity": "clinic", "name": "Dr. Kaniraj Peter Clinic", "source": "Local Knowledge"}}, {"type": "node", "id": 7844921896, "lat": 8.335607, "lon": 77.861467, "tags": {"addr:district": "Tirunelveli", "addr:full": "Tisaiyanvilai, Thoothukudi, Tuticorin", "addr:postcode": "627657", "addr:state": "Tamil Nadu", "amenity": "hospital", "healthcare": "hospital", "name": "Karpagam Hospital", "source": "Local Knowledge"}}, {"type": "node", "id": 7844921901, "lat": 8.324206, "lon": 77.578919, "tags": {"addr:district": "Tirunelveli", "addr:full": "Panakudi", "addr:postcode": "627109", "addr:state": "Tamil Nadu", "amenity": "hospital", "healthcare": "hospital", "name": "Jose Hemalatha Hospital", "source": "Local Knowledge"}}, {"type": "node", "id": 7844921902, "lat": 8.3553329, "lon": 77.6604565, "tags": {"addr:district": "Tirunelveli", "addr:full": "Kallikulam", "addr:postcode": "627113", "addr:state": "Tamil Nadu", "amenity": "hospital", "name": "GM Hospital", "source": "Local Knowledge"}}, {"type": "node", "id": 7844921903, "lat": 8.155279, "lon": 77.57311, "tags": {"addr:district": "Tirunelveli", "addr:full": "Anjugramam", "addr:postcode": "627114", "addr:state": "Tamil Nadu", "amenity": "hospital", "name": "Bharath Hospital", "source": "Local Knowledge"}}, {"type": "node", "id": 7844921905, "lat": 8.385411, "lon": 77.612187, "tags": {"addr:district": "Tirunelveli", "addr:full": "Malappuram, Valliyur", "addr:postcode": "627117", "addr:state": "Tamil Nadu", "amenity": "hospital", "healthcare": "hospital", "name": "Prem Hospital", "source": "Local Knowledge"}}, {"type": "node", "id": 7844921906, "lat": 8.384021, "lon": 77.610563, "tags": {"addr:district": "Tirunelveli", "addr:postcode": "627117", "addr:state": "Tamil Nadu", "amenity": "clinic", "healthcare": "clinic", "name": "Aravind Vision Centre", "source": "Local Knowledge"}}, {"type": "node", "id": 7844921909, "lat": 8.444369, "lon": 77.6059913, "tags": {"addr:district": "Tirunelveli", "addr:full": "Eruvadi", "addr:postcode": "627103", "addr:state": "Tamil Nadu", "amenity": "clinic", "name": "Raihan Clinic", "source": "Local Knowledge"}}, {"type": "node", "id": 7844921910, "lat": 8.465721, "lon": 77.576982, "tags": {"addr:district": "Tirunelveli", "addr:full": "Dohnavur", "addr:postcode": "627102", "addr:state": "Tamil Nadu", "amenity": "hospital", "check_date": "2024-01-21", "name": "Dohnavur Fellowship Hospital", "source": "Local Knowledge"}}, {"type": "node", "id": 7844921911, "lat": 8.313823, "lon": 77.88335, "tags": {"addr:district": "Tirunelveli", "addr:full": "Idaiyangudi", "addr:postcode": "627651", "addr:state": "Tamil Nadu", "amenity": "hospital", "name": "CSI Immanuel Mission Hospital", "source": "Local Knowledge"}}, {"type": "node", "id": 7844921914, "lat": 8.180459, "lon": 77.74457, "tags": {"addr:district": "Tirunelveli", "addr:full": "Idinthakarai", "addr:postcode": "627104", "addr:state": "Tamil Nadu", "amenity": "hospital", "name": "St.Lourdes Hospital", "source": "Local Knowledge"}}, {"type": "node", "id": 7844921915, "lat": 8.3186792, "lon": 77.578436, "tags": {"addr:district": "Tirunelveli", "addr:full": "Panakudi", "addr:postcode": "627109", "addr:state": "Tamil Nadu", "amenity": "hospital", "healthcare": "hospital", "name": "G.K Hospital", "source": "Local Knowledge"}}, {"type": "node", "id": 7844921916, "lat": 8.1599879, "lon": 77.615708, "tags": {"addr:district": "Tirunelveli", "addr:full": "Chettikulam", "addr:postcode": "627127", "addr:state": "Tamil Nadu", "amenity": "hospital", "name": "J.A.P Hospital", "source": "Local Knowledge"}}, {"type": "node", "id": 7844921917, "lat": 8.3909271, "lon": 77.6092669, "tags": {"addr:district": "Tirunelveli", "addr:full": "Malappuram, Valliyur", "addr:postcode": "627117", "addr:state": "Tamil Nadu", "amenity": "hospital", "healthcare": "hospital", "name": "Bejan Singh Eye Hospital", "source": "Local Knowledge"}}, {"type": "node", "id": 7844921918, "lat": 8.3784618, "lon": 77.6105111, "tags": {"addr:district": "Tirunelveli", "addr:full": "Valliyur", "addr:postcode": "627117", "addr:state": "Tamil Nadu", "amenity": "hospital", "healthcare": "hospital", "name": "King David Hospital", "source": "Local Knowledge"}}, {"type": "node", "id": 7844921920, "lat": 8.387223, "lon": 77.611919, "tags": {"addr:district": "Tirunelveli", "addr:full": "Malappuram, Valliyur", "addr:postcode": "627117", "addr:state": "Tamil Nadu", "amenity": "hospital", "healthcare": "hospital", "name": "Dr. Jeganathan Hospital", "source": "Local Knowledge"}}, {"type": "node", "id": 7844921922, "lat": 8.412765, "lon": 77.623632, "tags": {"addr:district": "Tirunelveli", "addr:full": "Valliyur", "addr:postcode": "627117", "addr:state": "Tamil Nadu", "amenity": "hospital", "healthcare": "hospital", "name": "Madhumita Hospital", "source": "Local Knowledge"}}, {"type": "node", "id": 7844921923, "lat": 8.381522, "lon": 77.614832, "tags": {"addr:district": "Tirunelveli", "addr:full": "Valliyur", "addr:postcode": "627117", "addr:state": "Tamil Nadu", "amenity": "clinic", "healthcare": "clinic", "name": "Vijaya Murugan Eye Care", "source": "Local Knowledge"}}, {"type": "node", "id": 7844921924, "lat": 8.387877, "lon": 77.608032, "tags": {"addr:district": "Tirunelveli", "addr:full": "Valliyur", "addr:postcode": "627117", "addr:state": "Tamil Nadu", "amenity": "hospital", "healthcare": "hospital", "name": "Suham Hospital", "source": "Local Knowledge"}}, {"type": "node", "id": 7844921925, "lat": 8.3341971, "lon": 77.8703184, "tags": {"addr:district": "Tirunelveli", "addr:full": "Idaiyangudi, Thisayanvilai", "addr:postcode": "627657", "addr:state": "Tamil Nadu", "amenity": "hospital", "healthcare": "hospital", "name": "Shanthi Hospital", "source": "Local Knowledge"}}, {"type": "node", "id": 7844921926, "lat": 8.259881, "lon": 77.605193, "tags": {"addr:district": "Tirunelveli", "addr:full": "Vaddakkankulam", "addr:postcode": "627116", "addr:state": "Tamil Nadu", "amenity": "hospital", "name": "St.Thomas Hospital", "source": "Local Knowledge"}}, {"type": "node", "id": 7844921927, "lat": 8.4432238, "lon": 77.6055892, "tags": {"addr:district": "Tirunelveli", "addr:full": "Eruvadi", "addr:postcode": "627103", "addr:state": "Tamil Nadu", "amenity": "clinic", "name": "Maria Clinic", "source": "Local Knowledge"}}, {"type": "node", "id": 7844921928, "lat": 8.4127381, "lon": 77.6236387, "tags": {"addr:district": "Tirunelveli", "addr:full": "Valliyur", "addr:postcode": "627117", "addr:state": "Tamil Nadu", "amenity": "clinic", "healthcare": "clinic", "name": "Giri Thangam Polyclinic", "source": "Local Knowledge"}}, {"type": "node", "id": 7844921931, "lat": 8.4643135, "lon": 77.5805261, "tags": {"addr:district": "Tirunelveli", "addr:full": "Dohnavur", "addr:postcode": "627102", "addr:state": "Tamil Nadu", "amenity": "clinic", "name": "V Share Palliative Centre", "source": "Local Knowledge"}}, {"type": "node", "id": 7844921932, "lat": 8.387876, "lon": 77.610176, "tags": {"addr:district": "Tirunelveli", "addr:full": "Malappuram, Valliyur", "addr:postcode": "627117", "addr:state": "Tamil Nadu", "amenity": "clinic", "healthcare": "clinic", "name": "Mizpa Clinic", "source": "Local Knowledge"}}, {"type": "node", "id": 7844921936, "lat": 8.322479, "lon": 77.579036, "tags": {"addr:district": "Tirunelveli", "addr:full": "Panakudi", "addr:postcode": "627109", "addr:state": "Tamil Nadu", "amenity": "clinic", "healthcare": "clinic", "name": "Oswin Clinic", "source": "Local Knowledge"}}, {"type": "node", "id": 7844921938, "lat": 8.3352218, "lon": 77.8629477, "tags": {"addr:district": "Tirunelveli", "addr:full": "Thisayanvilai", "addr:postcode": "627657", "addr:state": "Tamil Nadu", "amenity": "hospital", "healthcare": "hospital", "name": "Rani Physiotherapy Hospital", "source": "Local Knowledge"}}, {"type": "node", "id": 7844921940, "lat": 8.335644, "lon": 77.863033, "tags": {"addr:district": "Tirunelveli", "addr:full": "Thisayanvilai", "addr:postcode": "627657", "addr:state": "Tamil Nadu", "amenity": "hospital", "healthcare": "hospital", "name": "Dr. Ajith Hospital", "source": "Local Knowledge"}}, {"type": "node", "id": 7844921942, "lat": 8.413131, "lon": 77.62408, "tags": {"addr:district": "Tirunelveli", "addr:full": "Valliyur", "addr:postcode": "627117", "addr:state": "Tamil Nadu", "amenity": "hospital", "healthcare": "hospital", "name": "Easwari Nursing Home", "source": "Local Knowledge"}}, {"type": "node", "id": 11535743827, "lat": 8.3172828, "lon": 77.5796363, "tags": {"amenity": "clinic", "check_date": "2025-08-09", "healthcare": "clinic", "name": "Oswin Clinic", "source": "survey"}}, {"type": "node", "id": 11535743832, "lat": 8.3883186, "lon": 77.6091625, "tags": {"amenity": "clinic", "check_date": "2024-01-21", "healthcare": "clinic", "name": "St. Michael's Dental Clinic", "source": "survey"}}, {"type": "node", "id": 11535743843, "lat": 8.3535573, "lon": 77.674873, "tags": {"amenity": "hospital", "check_date": "2024-01-21", "healthcare": "hospital", "name": "ISOS Hospital"}}, {"type": "way", "id": 441776713, "nodes": [4394791191, 4394791192, 4394791193, 2262767882, 4394791194, 4394791191], "tags": {"amenity": "hospital", "healthcare": "hospital", "name": "Government Hospital"}}]}